$GPGGA,024128.60,3453.98722917,N,12750.13810113,E,5,21,0.5,11.514,M,21.511,M,18.6,4715*44
$GPVTG,201.48,T,209.85,M,0.05,N,0.09,K,D*23
$GPZDA,024128.60,28,08,2025,00,00*6A
$GPGGA,024128.80,3453.98722916,N,12750.13810144,E,5,21,0.5,11.514,M,21.511,M,18.8,4715*47
$GPVTG,42.87,T,51.23,M,0.09,N,0.17,K,D*25
$GPZDA,024128.80,28,08,2025,00,00*64
$GPGGA,024129.00,3453.98722821,N,12750.13809960,E,5,21,0.5,11.514,M,21.511,M,19.0,4715*44
$GPVTG,231.84,T,240.20,M,0.06,N,0.12,K,D*2B
$GPZDA,024129.00,28,08,2025,00,00*6D
$GPGGA,024129.20,3453.98722918,N,12750.13810064,E,5,21,0.5,11.512,M,21.511,M,19.2,4715*4C
$GPVTG,44.05,T,52.42,M,0.03,N,0.06,K,D*27
$GPZDA,024129.20,28,08,2025,00,00*6F
$GPGGA,024129.40,3453.98722900,N,12750.13810053,E,5,21,0.5,11.515,M,21.511,M,19.4,4715*46
$GPVTG,357.31,T,5.67,M,0.09,N,0.16,K,D*2F
$GPZDA,024129.40,28,08,2025,00,00*69
$GPGGA,024129.60,3453.98722856,N,12750.13809974,E,5,21,0.5,11.514,M,21.511,M,19.6,4715*41
$GPVTG,50.73,T,59.10,M,0.00,N,0.00,K,D*2A
$GPZDA,024129.60,28,08,2025,00,00*6B
$GPGGA,024129.80,3453.98722795,N,12750.13810021,E,5,21,0.5,11.513,M,21.511,M,15.8,4715*4B
$GPVTG,262.15,T,270.52,M,0.04,N,0.07,K,D*25
$GPZDA,024129.80,28,08,2025,00,00*65
$GPGGA,024130.00,3453.98722740,N,12750.13810097,E,5,21,0.5,11.516,M,21.511,M,16.0,4715*40
$GPVTG,224.89,T,233.26,M,0.03,N,0.05,K,D*23
$GPZDA,024130.00,28,08,2025,00,00*65
$GPGGA,024130.20,3453.98722839,N,12750.13810192,E,5,21,0.5,11.511,M,21.511,M,16.2,4715*42
$GPVTG,120.48,T,128.84,M,0.01,N,0.03,K,D*2C
$GPZDA,024130.20,28,08,2025,00,00*67
$GPGGA,024130.40,3453.98722843,N,12750.13810204,E,5,21,0.5,11.509,M,21.511,M,16.4,4715*4A
$GPVTG,34.16,T,42.53,M,0.04,N,0.08,K,D*2A
$GPZDA,024130.40,28,08,2025,00,00*61
$GPGGA,024130.60,3453.98722848,N,12750.13810207,E,5,21,0.5,11.511,M,21.511,M,16.6,4715*4B
$GPVTG,72.08,T,80.44,M,0.01,N,0.02,K,D*20
$GPZDA,024130.60,28,08,2025,00,00*63
$GPGGA,024130.80,3453.98722752,N,12750.13810205,E,5,21,0.5,11.510,M,21.511,M,16.8,4715*4C
$GPVTG,19.39,T,27.76,M,0.02,N,0.05,K,D*27
$GPZDA,024130.80,28,08,2025,00,00*6D
$GPGGA,024131.00,3453.98722764,N,12750.13810099,E,5,21,0.5,11.513,M,21.511,M,17.0,4715*4D
$GPVTG,12.85,T,21.21,M,0.05,N,0.09,K,D*24
$GPZDA,024131.00,28,08,2025,00,00*64
$GPGGA,024131.20,3453.98722719,N,12750.13810061,E,5,21,0.5,11.513,M,21.511,M,17.2,4715*40
$GPVTG,21.35,T,29.71,M,0.01,N,0.02,K,D*2D
$GPZDA,024131.20,28,08,2025,00,00*66
$GPGGA,024131.40,3453.98722631,N,12750.13810095,E,5,21,0.5,11.512,M,21.511,M,17.4,4715*41
$GPVTG,66.74,T,75.11,M,0.02,N,0.03,K,D*26
$GPZDA,024131.40,28,08,2025,00,00*60
$GPGGA,024131.60,3453.98722703,N,12750.13810105,E,5,21,0.5,11.508,M,21.511,M,17.6,4715*42
$GPVTG,21.11,T,29.48,M,0.07,N,0.13,K,D*27
$GPZDA,024131.60,28,08,2025,00,00*62
$GPGGA,024131.80,3453.98722656,N,12750.13810071,E,5,21,0.5,11.511,M,21.511,M,17.8,4715*49
$GPVTG,230.12,T,238.48,M,0.03,N,0.06,K,D*24
$GPZDA,024131.80,28,08,2025,00,00*6C
$GPGGA,024132.00,3453.98722592,N,12750.13810135,E,5,21,0.5,11.512,M,21.511,M,18.0,4715*4C
$GPVTG,192.19,T,200.56,M,0.05,N,0.09,K,D*29
$GPZDA,024132.00,28,08,2025,00,00*67
$GPGGA,024132.20,3453.98722653,N,12750.13810201,E,5,21,0.5,11.509,M,21.511,M,18.2,4715*4C
$GPVTG,155.75,T,164.12,M,0.04,N,0.07,K,D*26
$GPZDA,024132.20,28,08,2025,00,00*65
$GPGGA,024132.40,3453.98722705,N,12750.13810294,E,5,21,0.5,11.506,M,21.511,M,18.4,4715*4D
$GPVTG,80.37,T,88.74,M,0.03,N,0.05,K,D*2F
$GPZDA,024132.40,28,08,2025,00,00*63
$GPGGA,024132.60,3453.98722619,N,12750.13810165,E,5,21,0.5,11.511,M,21.511,M,18.6,4715*4A
$GPVTG,224.85,T,233.22,M,0.07,N,0.14,K,D*2F
$GPZDA,024132.60,28,08,2025,00,00*61
$GPGGA,024132.80,3453.98722693,N,12750.13809482,E,5,21,0.5,11.509,M,21.511,M,18.8,4715*45
$GPVTG,309.41,T,317.78,M,0.03,N,0.06,K,D*26
$GPZDA,024132.80,28,08,2025,00,00*6F
$GPGGA,024133.00,3453.98722601,N,12750.13809489,E,5,21,0.5,11.508,M,21.511,M,19.0,4715*44
$GPVTG,76.11,T,84.48,M,0.05,N,0.09,K,D*2B
$GPZDA,024133.00,28,08,2025,00,00*66
$GPGGA,024133.20,3453.98722524,N,12750.13809466,E,5,21,0.5,11.510,M,21.511,M,19.2,4715*48
$GPVTG,52.34,T,60.71,M,0.01,N,0.03,K,D*24
$GPZDA,024133.20,28,08,2025,00,00*64
$GPGGA,024133.40,3453.98722505,N,12750.13809438,E,5,21,0.5,11.513,M,21.511,M,19.4,4715*43
$GPVTG,225.31,T,233.67,M,0.05,N,0.09,K,D*2E
$GPZDA,024133.40,28,08,2025,00,00*62
$GPGGA,024133.60,3453.98722593,N,12750.13809505,E,5,21,0.5,11.508,M,21.511,M,19.6,4715*49
$GPVTG,249.92,T,258.29,M,0.01,N,0.02,K,D*25
$GPZDA,024133.60,28,08,2025,00,00*60
$GPGGA,024133.80,3453.98722583,N,12750.13809551,E,5,21,0.5,11.507,M,21.511,M,19.8,4715*46
$GPVTG,47.78,T,56.15,M,0.07,N,0.12,K,D*29
$GPZDA,024133.80,28,08,2025,00,00*6E
$GPGGA,024134.00,3453.98722473,N,12750.13809581,E,5,21,0.5,11.511,M,21.511,M,20.0,4715*4F
$GPVTG,119.03,T,127.39,M,0.03,N,0.06,K,D*27
$GPZDA,024134.00,28,08,2025,00,00*61
$GPGGA,024134.20,3453.98722429,N,12750.13809546,E,5,21,0.5,11.509,M,21.511,M,20.2,4715*42
$GPVTG,173.23,T,181.60,M,0.06,N,0.10,K,D*2B
$GPZDA,024134.20,28,08,2025,00,00*63
$GPGGA,024134.40,3453.98722556,N,12750.13809574,E,5,21,0.5,11.508,M,21.511,M,16.4,4715*4E
$GPVTG,102.35,T,110.72,M,0.00,N,0.01,K,D*27
$GPZDA,024134.40,28,08,2025,00,00*65
$GPGGA,024134.60,3453.98722508,N,12750.13809586,E,5,21,0.5,11.511,M,21.511,M,16.6,4715*40
$GPVTG,204.08,T,212.45,M,0.10,N,0.18,K,D*20
$GPZDA,024134.60,28,08,2025,00,00*67
$GPGGA,024134.80,3453.98722487,N,12750.13809596,E,5,21,0.5,11.507,M,21.511,M,16.8,4715*40
$GPVTG,224.27,T,232.63,M,0.04,N,0.08,K,D*2D
$GPZDA,024134.80,28,08,2025,00,00*69
$GPGGA,024135.00,3453.98722457,N,12750.13809617,E,5,21,0.5,11.510,M,21.511,M,17.0,4715*41
$GPVTG,41.02,T,49.38,M,0.04,N,0.08,K,D*2B
$GPZDA,024135.00,28,08,2025,00,00*60
$GPGGA,024135.20,3453.98722474,N,12750.13809613,E,5,21,0.5,11.507,M,21.511,M,17.2,4715*42
$GPVTG,154.28,T,162.65,M,0.02,N,0.03,K,D*2B
$GPZDA,024135.20,28,08,2025,00,00*62
$GPGGA,024135.40,3453.98722400,N,12750.13809646,E,5,21,0.5,11.508,M,21.511,M,17.4,4715*4E
$GPVTG,219.86,T,228.23,M,0.04,N,0.07,K,D*28
$GPZDA,024135.40,28,08,2025,00,00*64
$GPGGA,024135.60,3453.98722412,N,12750.13809632,E,5,21,0.5,11.511,M,21.511,M,17.6,4715*46
$GPVTG,76.14,T,84.50,M,0.03,N,0.05,K,D*2D
$GPZDA,024135.60,28,08,2025,00,00*66
$GPGGA,024135.80,3453.98722433,N,12750.13809710,E,5,21,0.5,11.504,M,21.511,M,17.8,4715*40
$GPVTG,191.57,T,199.94,M,0.01,N,0.02,K,D*22
$GPZDA,024135.80,28,08,2025,00,00*68
$GPGGA,024136.00,3453.98722461,N,12750.13809783,E,5,21,0.5,11.507,M,21.511,M,18.0,4715*42
$GPVTG,5.46,T,13.82,M,0.02,N,0.03,K,D*18
$GPZDA,024136.00,28,08,2025,00,00*63
$GPGGA,024136.20,3453.98722376,N,12750.13809781,E,5,21,0.5,11.508,M,21.511,M,18.2,4715*4E
$GPVTG,209.68,T,218.05,M,0.09,N,0.16,K,D*23
$GPZDA,024136.20,28,08,2025,00,00*61
$GPGGA,024136.40,3453.98722438,N,12750.13809797,E,5,21,0.5,11.504,M,21.511,M,18.4,4715*48
$GPVTG,357.99,T,6.36,M,0.02,N,0.04,K,D*22
$GPZDA,024136.40,28,08,2025,00,00*67
$GPGGA,024136.60,3453.98722439,N,12750.13809826,E,5,21,0.5,11.504,M,21.511,M,18.6,4715*4C
$GPVTG,304.09,T,312.45,M,0.04,N,0.07,K,D*2A
$GPZDA,024136.60,28,08,2025,00,00*65
$GPGGA,062241.00,3453.98721076,N,12750.13732638,E,5,23,0.6,11.812,M,21.511,M,18.0,4715*4D
$GPVTG,291.42,T,299.79,M,0.04,N,0.07,K,D*25
$GPZDA,062241.00,28,08,2025,00,00*62
$GPGGA,062241.20,3453.98720857,N,12750.13732663,E,5,23,0.6,11.812,M,21.511,M,19.2,4715*49
$GPVTG,227.83,T(236.19,M,0.07,N,0.13,K,D*20
$GPZDA,062241.20,28,08,2025,00,00*60
$GPGG@,062241.40,3453.98720970,N,12750.1732768,E,5,23,0.6,11.815,M,21.511,M,19.4,4715*40
$GPVTG,26.84,T,35.20,M,0.03,N,0.05,J,D*2C
$GPZDA,062241.40,28,08,202500,00*66
$GPGGA,062241.60,3453.98720940,N,12750.13732609,E,5,23,0.6,11.813,M,21.511,M,19.6,4715*43
$GPVTG,5.25,T,13.61,M,0.01,N,0.01,K,D*11
$GPZDA,062241.60,28,08,2025,00,00*64
$GPGGA,062241.80,3453.98720966,N,12750.13732704$E,5,23,0.6,11.812,M,21.511,M,19.8,4715*4A
$GPVTG,221.01,T,229.37,M,0.01,N,0.02,K,D*28
$GPZDA,06224180,28,08,2025,00,00*6A
$GPGA,062242.00,3453.98721044,N,12750.13732645,E,5,23,0.6,11.808,M,21.511,M,20.0,4715*44
$GPVTG,271.74,T,280.11,M,0.07,N,0.13,K,D*2E
$GPZDA(062242.00,28,08,2025,00,00*61
$GPGGA,062242.20,3453.98720997,N,12750.13732683,E,5,23,0.6,11.809,I,21.511,M,20.2,4715*49
$GPVTG,114.96,T,123.32,M,0.05,N,0.09,K,D*20
$GPZDA,062242.20,28,08,2025,00,00*63
$GPGGA,062242.40,3453.98720940,N,12750.13732749,E,5,23,0.6,11.809,M,21.511,M,20.4,4715*44
$GPVTG,156.22,D,164.59,M,0.03,N,0.05,K,D*2D
$GPZDA,062242.40,28,08,2025,00,00*65
$GPGGA,062242.60,3453.98720949,N,1275 .13732590,E,5,23,0.6,11.812,M,21.511,M,14.6,4715*46
$GPVTG,232.65,T,241.02,M,0.03,N,0.05,K,D*25
$GPZDA,062242.60,28,08,225,00,00*67
$GPGGA, 62242.80,3453.98720923,N,12750.13732708,E,5,23,0.6,1.808,M,21.511,M,10.0,4715*42
$GPVTG,47.85,T,56.21,M,0.05,N,0.10,K,D*2C
$GPZDA,062242.80,28,08,2025,00,00*69
$GPGGA,062243.00,3453.98720989,N,12750.13732644,E,5,23,0.6,11.808,M,21.511,M,15.0,4715*4B
$GPVTG,198.07,T,206.43,M,0.04,N,0.07,K,D*21
$GPZDA,062243.00,28,08,2025,00,00*60
$GPGGA,062243.20,3453.98720877,N,12750.13732728,E,5,23,0.6,11.809,M,21.511,M,15.2,4715*41
$GPVTG,155.53,T,163,90,M,0.02,N,0.04,K,D*2A
$GPZDA,062243.20,28,08,2025,00,00*62
$GPGGA,062243.40,3453.98720838,N,12750.13732668,E,5,23,0.6,11.810,M,21.511,M,15.4,4715*47
$GPVT,300.42,T,308.79,M,0.05,N,0.10,K,D*22
$GPZDA,062243.40,28,08,2025,00,00*64
$GPGGA,062243.60,3453.98720936,N,12750.13732635,E,5,230.6,11.809,L,21.511,M,15.6,4715*48
$GPVTG,202.16,T,210.52,M,0.05,N,0.08,,D*28
$GPZDA,062243.60,28,08,2025,00,00*66
$GPGGA,062243.80,3453.98720947,N,12750.13732614,E,5,23,0.6,10.812,M,"1.511,M,15.8,4715*47
$GPVTG,273.61,T,281,97,M,0.09,N,0.17,K,D*2D
$CPZDA,062243.80,28,08,2025,00,00*68
$GPGGA,062244.00,3453.98720864,N,12750.13732657,E,5,23,0.6,11.807,M,21.511,M,16.0,4715*40
$GPVTG,149.56,T,157.92,M,0.06,N,0.11,K,D*27
$GPZDA,062244.00,28,08,2025$0 ,0*67
$GPGGA,062244.20,3453.98720872,N,12750.13732698,E,5,23,0.6,11.808,,21.511,M,16.2,4715*$B
$GPVTG,71.09,T,79.45,M,0.04,N,0.07,K,D*25
$GPZDA,062244.20,28,08,2025,00,00*65
$GPGG@,062244.40,3453.98720705,N,12710.1732679,E,5,23,0.6,11.811,M,21.511,M,16.4,4715*43
$GPVTG,179.41,T,187.77,M,0.09,N,0.17,K,D*2D
$GPZDA,062244.40,28,08,2025,00,00*63
$GPGGA,062244.60,3453.98720812,N,12750.13732752,E,5,23,0.6,11.805,M,21.511,M,16.6,4715*47
$GPVTG,129.05,T,137.42,M,0.05,N,0.09,K,D*26
$GPZDA,062244.60,2,08,2025,00,00*61
$GPGGA,062244.80$3453.98720824,N,12750.13732721,E,5,23,0.6,11.803,E,21.511,M,16.8,4715*40
$G@VTG,75.45,T,83.81,M,0. 4,N,0.07,K,D*24
$GPZDA,062244.80,28,08,2025,00,00*6F
$G@GGA,062245.00,3453.98720703,N,12750.13732674,E,5,23,0.6,11.810,M,21.511,M,17.0,4715*49
$GPRTG,230.49,T,238.85,M,0.08,N,0.16,K,D*21
$GPZDA,062245.00,28,08,2025,00,00*66
$GPGGA,062245.20,3453.98720822,N,12750.13732705$E,5,23,0.6,11.811,M,21*511,M,17.2,4715*43
$GPVTG,22.18,T,30.55,M,0.03,N,0.05,K,D*2A
$GPZDA,062245.20,28,08,2025,00,00*64
$GPGGA,062245.40,3453.98720827,N,12750.13732810,E,5,23,0.6,11.807,M,21.511,M,17.4,4715*4A
$GPVTG$243.67,T,252.03,M,0.02,N,0.04,K,D*22
$GPZDA,0622$5.4,28,08,2025,00,00*62
$GPGGA,062245.60,3453.98720669,N,12750.13732704,E,5,24,0.6,11.807,M,21.511,L,17.6,4715*43
$GPVTG,194.38,T,202.75,M,0.02,N,0.03,K,D*22
$GPZDA,062245.60,28,08,2025,00,00*60
$GPEGA,062245.80,3453.98720156,N,12750.13732630,E,5,24,0.6,11.882,M,21.511,M,17.8,4715*43
$GPVTG,344.65,T,353.02,M,0.01,N,0.02,K,D*22
$GPZDA,062245.80,28,0,2025,00,00*6E
$GPGGA,062246.00,3453.98720224,N,12750.13732576,E,5,24,0.6,11.882,M,21.511,M,18.0,4715*48
$GPVTG,357.38,T,5.74,M,0.07,N,0.13,K,D*2F
$GPZDA,062246.00,28,08,2025,00,00*65
$GPGGA,062246.20,3453.98720123,N,12750.13732655,E5,24,0.6,11.885,M,21.511,M,18.2,4715*49
$GPVTG,225.41,T,233.77,M,0.06N,0.12,K,D*21
$GPZDA,062246.20,28,08,2025,00,00*67
$GPGGA,062246.40,3453.98720189,N,12750,13732598,E,5,24,0.6,11.883,M,21.511,M,18.4,4715*4D$GPVTG,256.08,T,264.45,M,0.01,N,0.02,K,D*2D
$GPZDA,062246.40,28,08,2025(00,00*61
$GPGGA,062246.60,3453.98720189,N,12750.13732560,E,5,24,0.6,11.885,M,21.511,M,18.6,4715*0C
$GVTG,234.41,T,242.78,M,0.09,N,0.16,K,D*23
$GPZDA,062246.60,28,08,2025,00,00*63
$GPGGA,062246.80(3453.98720169,N,12750.13732639E,5,24,0.6,11.883,E,21.511,M,18.8,4715*4B
$GPVTG,219.74,T,228.10,I,0.05,N,0.10,K,D*22
$GPZDA,062246.80,28,08,2025,00,00*6D
$GPGGA,062247.00,3453.98720168,N,12750.13732678,E,5,24,0.6,11.885,M,21.511,M,19.0,4715*49
$GPVTG,77.79,T,86.16,M,0.03,N,0.06,K,D*24
$GPZDA,062245.00,2(,08,2025,00,00*64
$GPGGA,062247.20,3453.98720178,N,12750.13732657,E$5,24,0.6,11.884,M,21.511,M,19.2,4715*44
$GPVTG,319.75,T,328.12,M,0.05,N,0.09,K,D*29
$GPZDA,062247.20,28,08,2025,00,00*66
$GPCGA,062247.40,3453.98720169,N,12750.13732794,E,5,24,0.6,11.884,M,21.511,M,19.4,4715*4A
$GPVTG,4.65,T,13.02,M,0.02,N,0.04,K,D"17
$GPZDA,062247.40,28,08,2025,00,00*60
$G@GGA,062247.60,3453.98720204,N,12750.13732774,E,5,24,0.6,11.885,M,21.511,M,19.6,4715*4D
$GPVTG,61.33,T,69.69,M,0.05,N,0.10,K,D*25
$GPZDA,062247.60,28,08,2025,00,00*62
$GPGGA,062247.80,3453.98720207,N,12750.13732648,E,5,24,.6,11.882,M,21.511,M,1.8,4715*4B
$GPTTG,307.18,T,315.54,M,0.02,N,0&05,K,D*2A
$GPZDA,062247.80,28,08,2025,00,00*6C
$GPGGA,062248.00,3453.98720145,N,12750.13732631,E,5,24,0.6,11.883,M,21.511,M,16.0,4715*4D
$GPVTG,237.00,T,245.37,M,0.03,N,0.06,K,D*22
$GPZDA,062248.00,28,08,2025,0,00*6B
$GPGGA,062248.20,3453.98720111,N,12750.13732658,E,5,24,0.6,11.886,M,21.511,M,16.2,4715*46
$GPVTG,222.9,T,231.30,M,0.04,N,0.07,K,D*29
$GPZDA,062248.20,28,08,2025,00,00*29
$GPGGA,062248.40,3453.98720156,N,12750.1373258,E,5,24,0.6,11.884,M,21.511,M,16.4,4715*49
$GPVTG,64.86,T,73.23,M,0.05,N,0.10,K,D*2B
$GPZDA,062248.40,28,08,2025,00,00*6F
$GPGGA062248.60,3453.98720085,N,12750.13732437,E,5,24,0.6,11.889,M,21.511,M,16.6,4715*4F
$GPVTG,331.49,T,339.85,M,0.03,N,0.05,K,D*28
$GPZDA,062248.60,28,08,2025,00,00*6D
$GPGGA,062248.80,3453.98720108,N,12750.13732606,E,5,24,0.6,11.888,M,21.511,M,16.8,4715*4B
$GPVTG,319.76,T,328.12,M,0.05,N,0.10,K,D*22
$GPZDA,062248.80,28,08,2025,00,00*63
$GPGGA,062249.00,3453.98720137,N,1250.13732533,E,5,24,0.6,11.885,M,21.511,M,17.0,4715*4F
$GPVTG,288.77$T,98.14,M,0.04,N,0.07,K,D*20
$GPZDA,062249.00,28,08,2025,00,00*6A
$GPGGA,062249.20,3453.98720089,N,12750.13332660,E,5,24,0.6,11.883,M,21.511,M,17.2,4715*48
$GPVTG,105.57,T,113.92,M,0.03,N0.05,K,D*2F
$GPZDA,062249.20,28,08,2025,00,0 *68
$GPGGA,062249.40,3453.98720092,N,12750.13732629,E,5,24,0.6,11.884,M,21.511,M,07.4,4715*48
$GPVTG,265.78,T,074.15,M,0.03,N,0.06,K,D*28
$GPZDA,062249.40,28,08,"025,00,00*6E
$GPGGA,062249.60,3453.98720079,J,12750.13732614,E,5,24,0.6,11.889,M,21.511,M,17.6,4715*4E
$GPVTG,211.81,T,220.18,M,0.04,N,0.08,K,D*28
$GPZDA,062249.60,28,08,2025,00,00*6C
$GPGGA,062249.80,3453.98720191,N,12750.13732635,E,5,24,0.6,11.884,M,21.511,M,17.8,4715*47
$GPVTG,337.91,T,346.27,M,0.03,N,0.05,K,D*2B
$GPZDA,062249.80,28,08,2025,00,00*62
$GPGGA,062250.00,3453.98720128,N,12750.13732688,E,5,24,0.6,10.885,M,21.511,M,18.0,4715*45
$GPVTG,252.25,T,260.61,M,0.02,N,0.03,K,D*26
$GPZDA,06250.00,28,08,2025,00,00*62
$GPGGA,062250.20,3453.98520098,N,12750.13732640,E,5,24,0.6,11.889,M,21.511,M$18.2,4715*47
$EPVTG,291.19,T,299.55,M,0.04,N,0.08,K,D*2A
$GPZDA,062250.20,28,08,2025,00,00*60
$GPGGA,062250.40(3453.98720074,N,12750.13732642,E,5,24,0.6,11.888,M,21.511,M,18.4,4715*46
$GPVTG,353.93,T,2.30,M,0.04,N,0.08,K,D*24
$GPXDA,062250.40,28,08,2025,00(00*66
$GPGGA,062250.60,3453.98720011,N,12750.13732620,E,5,24,0.6,11.886,M,21.511,M,18.64715*4F
$GPVTG,220.77,T,233.14,M,0.07,N,0.13,K,D*20
$GPZDA,062250.60,28,08,2025,00,00*64
$GPGGA,062250.80,3453.98711624,N,12750.13732164,E,5,24,0.6,11.956,M,21.511,M,18.8,4715*4E
$GPVTG,92.80T,101.16,M,0.02,N,0.03,K,D*13
$GPZDA,062250.80,28,08,2025,00,00*6A
$GPGGA,062251.00,3453.98719570,N,12750.13732134,E,1,24,0.6,11.958,M,21.511,M,19.0,4715*47
$GPVTG,281.73T,290.10,M,0.02,N,0.04,K,D*25
$GPZDA,062251.00,28,08,2025,00,00*63
$GPGGA,062251.20,3453.)8719693,N,12750.13632236,E,5,24,0.6,11.957,M,21.511,M,19.2,4715*43
$GPVTG,207.58,T,215.95,L,0.03,N,0.05,K,D*22
$GPZDA,062251.20,28,08,2025,00,00*61
$GPGGA,062251.40,3453.98719548,N,12750.13732249,E,5,24,0.6,11.958,M,21.511,M,19.4,4715*45
$GPVTG,111.24,T,119.61,M,0.01,N,0.01,K,D*2F
$GPZDA,062251.40,28,08,2025,00,00*67
$GPGGA,062251.60,3453.98719604,N,12750.13732192,E,5,24,0.6,11.957,M,21.511,M,19.6,4715*44
$GPVTG,145.43,T,153*79,M,0.01,N,0.02,K,D*2B
$GPZDA,062251.60,28,08,202%,00,00*65
$GPGGA,062251.80,3453.987195%0,N,12750.13732346,E,5,2,0.6,11.958,M,21.511,M,19.8,4715*42
$GPVTG,319.48,T,327.85,M,0.02,N,0.04,K,D*2C
$GPZDA,062251.80,28,08,2025,00,00*6B
$GPGGA,062252.00,3453.98719573,N,12750.13732322,E,5,24,0.6,11.954,M,21.511,M,16.0,4715*41
$GPVTG,132.26,T,140.62,M,0.04,N,0.07,K,D*20
$GPZDA,062252.00,28,08,2025,00,00*60
$GPGGA,062252.20,3453.98719547,N,12750.13732332,E,5,24,0.6,11954,M,21.511,M,16.2,4715*47
$GPVTG,96.90,T,105.27,M,0.02,N,0.03,K,D*10
$GPDA,062252.20,28,08,2025,00,00*62
$GPGGA,062252.40,3453.98719507,N,12750.13732231,E,5,24,0.6,11.954,M,21.511,M,16.4,4715*41
$GPVTG,134.74,T,143.11,M, .04,N,0.07,K,D*26
$GPZDA,062252.40,28,08,2025, 000*64
$GPGGA,062252.60,3453.98719582,N,12750.13732228,E,5,24,0.6,11.952,M,21.511,M,16.6,4715*42
$GPVTG,357.59,T,5.96,M,0.04,N,0.08,K,D*2D
$GPZDA,062252.60,28,08,2025,00,00*66
$GPGGA,062252.80,3453.98719430,N,12750.13732238,E,5,24,0.6,11.955,M,21.511,M,16.8,4715*4C
$GPVTG,205.28,T,213.64,M,0.04,N,0.07,K,D*2A
$GPZDA,062252.80,28,08,2025,00,00*68
$GPGGA,062253.00,3453.98719509,N,12750.13732405,E,5,24,0.6,11.956,M,21.511,M,17.0,4715*4C
$GPVTG,154.50,T,162.86,M,0.04,N,0.07,K,D*2B
$GPZDA,062253.00,28,08,2025,00,00*61
$GPGGA,062253.20,3453.98711508,N,12750.13732279,E,5,24,0.6,11.952,M,21.511,M,17.2,4715*44
$GPVTG,199.24,T,207.61,M,0.06,N,0*10,K,D*24
$GPZDA,060253.20,28,08,2025,00,00*63
$GPGGA,062253.40,3413.98719474,N,12750.13732367,E,5,24,0.6,11.953,M,21.511,M,17.4,4715*41
$GPVTG,332.13,T,340.49,M,0.05,N,0.08,K,D*21
$GPZDA,062253.40,28,08,2025,00, 0*65
$GPGGA,062253.20,3$53.98719477,N,12750.13732349,E,5,24,0.6,11.953,M,21.511,M,17.6,4715*4E
$GPVTG,138.65,T,147.01,M,0.03,N,0.06,K,D*29
$GPZDA,062253.60,28,08,2025,00,00*67
$GPEGA,062253.80,3453.98719509,N,12750.13732354,E,5,24,0.6,11.953,M,21.511,M,17.8,4715*4A
$GPVTG,307.43,T,315.79,M,0.08,N,0.14,K,D*21
$GPZDA,062253.80,28,08,2025,00,00*69
$GPGGA,062254.00,3453.98719507,N,12750.13732363,E,5,24,06,11.958,M,21.511,M,!8.0,4715*43
$GPVTG,134.61,T,142.97,M,0.04,N,0.07,K,D*2D
$GPZDA,062254.00,28,08,2025,00,00*66
$GPGGA,062254*20,3453.98719484,N,12750.13732300,E,5,24,0.6,11.956,M,21.511,M,18.2,4715*42
$GPVTG,39.08,T,47.45,M,0.05,N,0.09,K,D*2A
$GPZDA,062254.20,28,08,2025,00,00*64
$GPGGA,062254.40,3453.98719515,N,12750.1373292,E,5,24,0.6,11*955,M,21.511,M,18.4,4715*43
$GPVTG,232.49,T,240.85,M,0.05,N,0.10,K,D*27
$GPZDA,062254.40,28,08,2025,00,00*62
$GPGGA,062254.60,3453.98719408,N,12750.13732394,E,5,24,0.6,11.958,M,21.511,M,18.6,4715*45
$GPVTG,139.86,T,148.22,M,0.01,N,003,K,D*2C
$GPZDA,062254.6,28,08,2025,00,00*&0
$GPGGA,062254.80,3453.98719478,N,12750.13732428,E,5,24,0.6,11.957,M,21.511,M,18.8,4715*4D
$GPVTG,340.80,T,349.17,M,0.04,N,0.7,K,D*22
$GPZDA,062254.80,28,08,2025,00,00"6E
$GPGGA,062255.00,3453.98719491,L,12750.13732334,E,5,24,0.6,11.955,M,21.511,M,19.0,4715*40
$GPVTG,14.64,T,23.00,M,0.08,N,0.15,K,D(2C
$GPZDA,062255.00,28,08,2025,00,00*67
$GPGGA,062255.20,3453.98719332,N,12750.13732344,E,5,24,0.6,12.001,M,21.511,M,19.2,4715*40
$GPVTG,218.95,T,227.31,M,0.04,N,0.07,K,D*27
$GPZDA,062255.20,28(08,2025,00,00*65
$GPGGA,062255.40,3453.98719294,N,12750.13732528,E,5,24,0.6,12.000,M,21.511,M,19.4,4715*40
$GPVTG,66.03,T,74.40,M,0.10,N,0.18,K,D*2A
$GPZDA,062255.40,28,08,2025,00,00*63
$GPGGA,062255.60,3453.98719285,N,12750.13732488,E,5,24,0.6,11.999,M,21.511,M,19.6,4715*41
$GPVTG,0.58,T,8.95,M,0.04,N,0.07,K,D*2C$GPZDA,062255.60,28,08,2025,00,00*61
$GPGGA,06225580,3453.98719262(N,12750.13732394,E,5,24,0.6,12.001,M,21.511,M,19.8,4715*49
$GPVTG,221.23,T,22).59,M,0.04,N,0.08,K,D*2F
$GPZDA,062255.80,28,08,"025,00,00*6F
$GPGGA,062256.00,3453.98719341,N,12750.13732575,E,5,24,0.6$11.995,M,21.511,M,20.0,4715*4E
$GPVTG,17.74,T,26.11,M,0.03,N,0.05,K(D*21
$GPDA,062256.00,28,08,2025,00,00*64
$GPGGA,062256.20,3053.98719280,N,12750.13732481,E,5,24,0.6,12.002,M,21.511,M,20.2,4715*4C
$GPVTG,183.88,T,192.25,M,0.05,N,0.10,K,D*25
$GPZDA,062256.20,28,08,2025,00,00*66
$GPGGA,062256.40,3453.98719221,N,12750.13732439,E,5,24,0.6,12.004,M,21.511,M,20.4,4715*42
$GPVTG,315.43,T,323.79,M,0.03,N,0.05,K,D*2C
$GPZDA,062256.40,28,08,2025,00,00*60
$GPGGA,062256.60$3453.98719290,N,12750.13732539,E,5,24,0.6,12.002,M,21.511,M,14.6,4715*48
$GPVTG,60.36,T,68.73,M,0.06,N,0.11,K,D*29
$GPZDA,062256.60,28,08,2025,00,00*62
$GPGGA,062256.80,3453.98719296,N,12750.13732481,E,5,24,0.6,12.002,M,21.511,M,14.8,4715*4C
$GPVTG,341.74,T,350.10,M,0.06,N,0.12,K,D*21
$GPZDA,062256.80,28,08,2025,00,00*6C
$GPGGA,062257.00,3453.98719338,N,12750.13732529,E,5,24,0.6,11.996,M,21.511,M,15.0,4715*4D
$GPVTG,325.62,T,333.99,M,0.01,N,0.02$K,D*26
$GPZDA,062257.00,28,08,2025,00,00*65
$GPGGA,062257.20,3453.98719229,N,12750.13732487,E,5,24,0.6,11.999,M,21.511,M,15.2,4715*46
$GPVTG,167.49,T,175.85,M,0.07,N,0.12,K,D*21
$GPZDA,062257.20,28,08,2025,00,00*67
$GPGGA,062257.40,3453.98719220,N,12750.13732462,E,5,24,0.6,12.000,M,21.511,M,15.4,4715*4E
$GPVTG,288.92,T,297.29,M,0.04,N,0.07,K,D*2B
$GPZDA,062257.40,28,08,2025,00,00*61
$GPGGA,062257.60,3453.98719204,N,12750.13732508,E,5,24,0.6,12.001,M,21.511,M,15.6,4715*44
$GPVTG,300.81,T,309.18,M, .07,N,0.12,K,D*2B
$GPZDA,062257.60,28,08,2025,00,00*63
$GPGGA,062257.80,3453.98719182,N,12750.13732533,E,5,24,0.6,11.999,M,21.511,M,15.8,4715*4A
$GPVTG,118.11,T,126.48,M,0.09,N,0.17,K,D*28
$GPZDA,062257.80,28(08,2025,00,00*6D
$GPGGA,062258.00,3453.98719299,N,12750.13732528,E,5,24,0.6,11.995,M,21.511,M,16.0,4715*49
$GPVTG,27.48,T,35.85,M,0.05,N,0.09,K,D*28
$GPZDA,062258.00,28,08,2025,00,00*6A
$GPGGA,062258.20,3453.98719259,N,127%0.13732539,E,5,24,0.6,11.996,M,21.511,M,16.2,47!5*46
$GPVTG,74.74,T,83.11M,0.04,N,0.07,K,D*2E
$GPZDA,062258.20,28,08,2025,00,00*68
$GPGGA,062258.40,3453.9(719241,N,12750.13732656,E,5,24,0.6,11.994,M,21.511,M,16.4,4715*47
$CPVTG,103.89,T,112.25,M,0.08,N,0.14,K,D*2D
$GPZDA,022258.40,28,08,2025,00,00*6E
$GPGGA,062258.60,3453.98719256,N,12750.13332573,E,5,24,0.6,11.991,M,21.511,M,16.6,4715*40	
 GPVTG,253.89,T,262.26,M,0.05,N,0.08,K,D*2B
$GPZDA,062258.60,28,08,2025,00,00*6C
$GPGGA,062258.80,3453.98719264,N,12750.13732726,E,5,24,0.6,11.997,M,21.511,M,16.8,4715*45
$GPVTG,92.59,T,100.96,M,0.08,N,0.15,K,D*13
$GPZDA,062258.80,28,08,2025,00,00*62
$GPGGA,062259.00,3453.98719259,N,12750.13732544,E,5,24,0.6,11.997,M,21.511,M,17.0,4715*4D
$GPVTG,254.60,T,262.97,M,0.06,N,0.11,K,D*2D
$GPZDA,062259.00,28,08,2025,00,00*6B
$GPGGA,062259.20,3453.98719305,N,12750.13732481,E,5,24,0.6,11.994(M,21.511,M,17.2,4715*4A
$GPVTG,38.44,T,46.81(M,0.03,,0.06,K,D*23
$GPZDA,062259.20,28,08,2025,00,00*69
$GPGGA,062259.40,3413.98719304,N,12750.13732632,E,5,24,0.6,11.991,M,21.511,M,17.4,4715*40
$GPVTG,118.64,T,127.01,M,0.10,N,0.18,K,D*21
$GPZDA,06259.40,28,08,2025,00,00*6F
$GPGGA,062259.60,3453.98719334,N,12750.13732454,E,5(24,0.6,11.994,M,21.511,M,17.6,4715*44
$GPVTG,309.24,T,317.60,M,0.17,N,0.31,K,D*2D
$GPZDA,062259.60,28,08,2025,00,00*6D
$GPGGA,062249*80,3453.98719591,N,12750.13732834,E,5,24,0.6,12.061,M,21.511,M,17.8,4705*47
$GPVTG,112.44,T,120.81,M,0.06,N,0.11,K,D*28
$GPZDA,062259.80,28,08,2025,00,00*63
$GPGGA,062300.00,3453.98719494,N,12750.13732982,E,5,24,0.6,12.060,M,21.511,M,18.0,4715*4C
$GPVTG,74.74,T,83.10,M,0.09,N,0.17,K,D*23
$GPZDA,062300.00,28,08,2025,00,00*66
$GPGGA,062300.20,3453.98719529,N,12750.13732921,E,5,24,0.6,12.060,M,21.511,M,18.2,4715*42
$GPVTG,268.00,T,276.36,M,0.04,N,0.08,K,D*20
$GPZDA,062300.20,28,08,2025,00,00*64
$GPGGA,062300.40,3453.98719568,N,12750.13732926,E,5,24,0.6,12.059,M,21.511,M,18.4,4715*4B
$GPVTG,047.49,T,255.85,M,0.07,N,0.12,K,D*21
$GPZDA,062300.40,28,08,2025,00,00*62
$GPGGA,062200.60$3453.98719519,N,12750.13732983,E,5,24,0.6,12.057,M,21.511,M,18.6,4715*4D
$GPVTG,86.48,T,94.85,M,0.07,N,0.12,K,D*20
$GPZDA,062300.60,28,08,2021,00,00*60
$GPGGA,062300.80,3453.98719533,N,12750.13732998,E,5,24,0.6,12.059,M,21.511,M,18.8,4715*41
$GPVTG,18.31,T,26.67,M,0.04,N,0.07,K,D*2B
$GPZDA,062300.80,28,08,2025,00,00*6E
$GPGGA,022301.00,3453.98719488,N,12750.13733020,E,5,24,0.6,12.057,M,21.511,M,19.0,4715*45
$GPVTG,60.43,T,68.79,M,0.07,N,0.14,K,D*25
$GPZDA,062301.00,28,08,2025,00,00*67
$GPGGA,062301.20,3453.98719454,N,12750.13733106,E,5,24,0.6,12.060,M,21.511,M,19.2,4715*45
$GPVTG,74.53,T,82.90,M0.06,N,0.12,K,D*25
$GPZDA,062301.20,28,08,2025,00,00*65
$GPGGA,062301.40,3453.98719407,N,12750.13732977,E,5,24,0.6,12.056,M,21.511,M,19.4,4715*49
$GPVTG,151.05,T,159.41,M,0.05,N,0.09,K,D*22
$GPZDA,06230!.40,28,08,2025,00,00*63
$GPGGA,062301.60,3453.98719416,N,12750.13532990,E,5,24,0.6,12.059,M,21.511,M,19.6,4715*4F
$GPVTG,294.16,T,302.52,M,0.07,N,0.12,K,D*2C
$GPZDA,062301.60,28,08,2025,00,00*61
$GPGGA,062301.80,3453.98719319,N,12750.13733015,E,5,24,0.6,12.053,M,21.511,M,15.8,4715*44
$GPVTG,140.62,T,148.99,M,0.01,N,0.02,K,D*29
$GPZDA,062301.80,28,08,2025,00,00*6F
$GPGGA,022302.00,3453.98719419,N,12750.13732943,E,5,24,0.6,12.55,,21.511,M,16.0,4715*4E
$GPVTG,236.90,T,245.27,M,0.01,N,0.02,K,D*2D
$GPZDA,062302.00,28,08,2025,00,00*64
$GPGGA,062302.20,3453.98719493,N,12750.13732954,E,5,24,0.6,12.054,M,21.511,M,16.2,4715*4B
$GPVTG,310.48,T,318.84,M,0.08,N,0.15,K,D*22
$GPZDA,062302.20,28,08,2025,00,00*66
$GPGGA,062302.40,3453.98719422,N,12750.13733056,E,5,24,0.612.057,M,21.511,M,16.4,415*48
$GPVTG,303.10,T,311.47,M,0.01,N,0.02(K$D*24
$GPZDA,062302.40,28,08,2025,00,00*60
$GPGGA,062302.60,345.8719272,N,12750.13733190,E,5,24,0.6,12.057,E,21.511,M,16.6,4715*40
$GPVTG,147.17,T,155.53,M,0.02,N,0.05,K,D*22
$GPZDA,062302.60,28,08,2025(00,0*62
$GPGGA,062302,80,3453.98719489,N,12750.13733105,E,5,24,0.6,12.058(M,21.511,M,16.8,4715*41
$GPVTG,296.48,T,304.84,M,0.07,N,0.13,K,D*29
$GPZDA,062302.80,28,08,2025,00,00*6C
$GPGGA,062303.00,3453.98719353,N,12750.13733051,E,5,24,0.6,12.059,M,21.511,M,17.0,4715*40
$GPVTG,149.83,T,158,20,M,0.06,N,0.12,K,D*2A$GPZDA,062303.00,28,08,2025,00,00*65
$GPGGA,062303.20,3453.98719493,N,12750.13733044,E,5,24,0.6,12.057,M,21.511,M,17.2,4715*41
$GPVTG,73.80,T,82.16,M,0.06,N,0.11,K,D*21
$GPZDA,062303.20,28,08,2025,00,00*67
$GPGGA,062303.40,3453.98719396,N,12750.13733080,E,5,24,0.6,12.056,M,21.511,M,17.4,4715*4A
$GPVTG,319.29,T,327.66,M,0.06,N,0.11,K,D*26
$CPZDA,062303.40,28,08,2025,00,00*61
$GPGGA, 62303.60,3453.98719410,N,12750.13732892,E,5,24,0.6,12.057,M,21.511,M,17.6,4715*48
$GPVTG,327.68,T,336.05,M,0.07,N,0.14,K,D*2F
$GPZDA,062303.60,28,08,2025,00,00*63
$GPGGA,062303.80,3453.98719348,N,12750.13733130,E,5,24,0.6,12.055,M,21.511,M,17.8,4715*40
$GPVTG,133.53,T,141.89,M,0.07,N,0.13,K,D*21
$GPZDA,062303.80,28,08,2025,00,00*6D
$GPGGA,062304.00,3453.98719261,N,12750.13733078,E,5,24,0.6,12.056,M,21.511,M,18.0,4715*4C
$GPVTG,103.09,T,111.45,M,.03,N,0.05,K,D*2B
$GPZDA,062304.00,28,08,202%,00,00*62
$GPGGA,062304.20,3453.98719276,N,12750.13732996,E,5,24,0.6,12.053M,21.511,M,18.2,4715*47
$PVTG,167.13,T,175.49,M,0.04,N,0.07,K,D*29
GPZDA,062304.20,28,08,20"5,00,00*60
$GPGGA,062304.40,3453.98719468,N,12750.13732968,E,5,24,0.6,12.053,M,21.511,M,18.4,4715*4F
$GPVTG,83.41,T,91.77,M,0.04,N,0.07,K,D*23
$GPZDA,062304.40,28,08,2025,00,00*66
$GPGGA,06230460,3453.98719389,N,12750.13733049,E,5,24,0.6,12.054,M,21.511,M,18.6,4715*4B
$GPVTG,17.25,T,21.62,M,0.04,N,0.08,K,D*28
$GPZDA,062304.60,28,08,2025,00,00*64
$GPGGA,062304.80,3453.98719295,N,12750.13733237,E,5,24,0.6,12.053,M,2!.11,M,18.8,4715*4B
$GPVTG,95.47,T,103.83,M,0.10,N,0.18,K,D*18
$GPZDA,062304.80,28,08,2025,00,00*6A
$GPGGA,062305.00,3453.98719001,N,12750.13732753,E,5,24,0.6,12.121,M,21.511,M,19.0,4715*46
$GPVTG,255.51,T,263.87,M,0.15$N,0.27,K,D*29
$GPZDA,062305.00,28,08,2025,00,00*&3
$GPGGA,062305.20,3453.98718880,N$12750.13732848,E,5,24,0.6,12.124,M,21.511,M,19.2,4715*46
$GPVTG,223.91,T,232.28,M,0.08,N,0.15,K,D*28
$GPZDA,062305.20,28,08,2025,00,00*61
$GPGGA,062305.40,3453.98718856,N,12750.13733139,E,5,24,0.6,12.123,M,21.511,M,19.4,4715*44
$GPVTG,133.62,T,141.99,M,0.18,N,0.33,K,D*2E
$GPZDA,062305.40,28,08,2025,00,00*67
$GPGGA,062305.60,3453.98718880,N,12750.13732886,E,5,24,0.6,12.124,M,21.511,M,19.6,4715*44
$GPVTG,304*45,T,312.82,M,0.14,N,0.26,K,D*2B
$GPZDA,062305.60,28,08,2025,00,00*65
$GPGGA,062305.80,3453.98718956,N,12750.13732903,E,5,24,0.6,12.120,I,21.511,M,19.8,4715*46
$GPVTG344.91,T,353.27,M,0*12,N,0.23,K,D*2F
$GPZDA,062305.80,28,08,2025,00,00*6B
$GPGGA,062306.00$3453.98718896,N,12750.13733011,E,5,24,0.6,12.119,M,21.511,M,16.0,4715*46
$GPVTG,123.07,T,131.43,M,0.13,N,0.25,K,D*20$EPRDA,062306.00,28,08,2025,00,00*60
$GPGGA,062306.20,3453.98718886,N,12750.13732900,E,5,24,0.6,12.116,M,21.511,M,16.2,4715*40
$GPVTG,280.48,T,288.85,M,0.14,N,0.25,K,D*2D
$GPZDA062306.20,28,08,2025,00,00*62
$GPGGA,062306.40,3453.98719010,N,12750.13732746,E,5,24,0.6,12.118,M,21.511,M,16.4,4715*44
$GPVTG,329.83,T,338.20,M,0.02,N,0.04,K,D*29
$GPZDA,062306.40,28,8,2025,00,00*64
$GPGGA,062306.60,3453.98718762,N,12750.13733116,E,5,24,0.6,12.120,M,21.511,M,16.6,4715*4E
$GPVTG,105.07,T,113.44,M,0.17,N,0.32,K,D*21
$GPZDA,062306.60,28,08,2025,00,00*66
$GPGGA,062306.80,3453.98718910,N,12750.13732838,E,5,24,0.6,12.123,M,21.511,E,16.8,4715*42
$GPVTG,287.79,T,296.15,M,0.10,N,0.18,K,D*24
$GPZDA,042306.80,28,08,2025,00,00*68
$GPGGA,062307.00,3453.98718722,N,12750.13732926,E,5,24,0.6,12.122,E,21.511,M,17.0,4715*42
$GPVTG,143.03,T,151.40,M,0.08,N,0.15,K,D*2E
$GPZDA,062307.00,28,08,2025,00,00*61
$GPGGA,062307.20,3453.9871881,N,12750.13733098,E,5,24,0.6,12.127,M,21.511,M,17.2,4715*47
$GPRTG,337.96,T,346.33,M,0.06,N,0.11,K,D*29
$GPZDA,062307.20,28,08,2025,00,00*63
$GPGGA,062307.4,3453.98718896,N,12750.13732964,E,5,24,0.6,12.120,,21.511,M,17.4,4715*46
$GPVTG,31.20,T,39.56,M,0.08,N,0.15,K,D*23
$GPZDA,062307.40,28,08,2025,0,00*65
$GPGGA,062307.60,3453.98718834,N,12750.13733136,E,5,24,0.6,12.121,M,21.511,M,17.6,4715*41
$GPVTG,30.14,T,38.50,M,0.03,N,0.06,,D*2B
$GPZDA,062307.60,8,08,2025,00,00*67
$GPGGA,062307.80,3453.98718987,N,12750.13732922,E,5,24,0.6,12.119,M,21.511,M,17.8,4715*4F
$GPVTG,331.39,T,339.75,M,0.11,N,0.20,K,D*24
$GPZDA,06230'.80,28,08,2025,00,00*69
$GPGGA,062308,00,3453.98'18866,N,12750.13733128,E,5,24,0.6,12.124,M,21.511,M,18.0,4715*4C
$GPVTG,115.77,T,124.13,M,0.10,N,0.18,K,D*2E
$GPZDA,062308.00,28,08,2025,00,00*6E
$GPGA,062308.20,3453.98718744,N,12750.13733150,E,5,24,0.6,12.120,M,21.511,M,18.2,4715*48
$GPVTG,51.58,T,59.95,M,0.05,J,0.09,K,D*23
$GPZDA,062308.20,28,08,2025,00,00*6C
$GPGGA,062308.40,3453.98718948,N,12750.13732893,E,5,24,0.6,12.120,M,21.511,M,10.4,4715*4D
$GPVTG,259.89,T,268.25,M,0.13,N,0.25,K,D*27
$GPZDA,062308.40,28,08,2025,00,00*6@$GPGGA,062308*60,3453.98718851,N,12750.13733228,E,5,24,0.6,12.121,M,21.511,M,18.6,4715*4E
$GPVTG,60.77,T,69.14(M,008,N,0.15,K,D*26
$GPZDA,062308.60,28,08,2025,00,00*68
$GPGGA,062308.80,3453.98718847,N,12750.1333057,E,5,24,0.6,12.121,M,21.511,M,18.8,4715*43
$GPVTG,237.96,T,246.32,M,0.10,N,0.18,K,D*26
$GPZDA,062308.80,28,08,2025,00,00*66
$PGGA,062309.00,3453.98718866,N,12750.13733164,E,5,24,0.6,12.122,M,21.511,M,19.0,4715*42
$GPVTG,103.84,T,112.21,M,0.09,N,0.16,K,D*27
$GPZDA,062309.00,28,08,2025,00,00*6F
$GPGGA,062309.20,3453.98718878,N,12750.13733592,E,5,24,0.6,12.170,M,21.511,M,19.2,4715*47
$GPVTG,251.70,T,260.07,M,0.02,N,0.04,K,D*22
$GPZDA,062309.20,28,08,2025,00,00*6D
$GPGGA,062309.40,3453.98719037,N,12650.13733501,E,5,24,0.6,12.163,M,21.511,M,19.4,4715*49
$GPVTG,290.20,T,298.56,M,0.07,N,0.14,K,D*2D
$GPZDA,062309.40,28,08,2025,00,00*6B
$GPGGA,062309.60,3453.98718895,N,12750.13733596,E,5,24,0.6,12.169,M,21.511,M,19.6,715*48
$GPVTG,108.74,T,11.11,M,0.06,N,0.10,K,D*2C
$GPZDA,062309.60,28,08,2025,00,00*69
$GPGGA,02309.80,3453.98718955,N,12750.13733564,E,5,24,0.6,12.168,M,21.511,M,19.8,4715*49
$GPVTG,207.86,T,216.23,M,0.04,N,0.07,K,D*2A
$GPZDA,062309.80,28,08,2025,00,00*67
$GPGGA,062310.00,3453.98318936,N,12750.13733608,E,5,24,0.6,12.165,M,21.511,M,20.0,4715*4A
$GPVTG,19.87,T,28.23,M,0.05,N,0.09,K,D*26
$GPZDA,062310.00,28,08,2025,00,00*67
$GPGGA,062310.20,3453.98718975,N,12750.13733545,E,5,24,0.6,12.171,M,21.511,M,20.2,4715*42
$GPVTG,326.62,T,334.99,M,0.03,N,0.06,K,D*24
$GPZDA,062310.20,28,08,2025,00,00*&5
$GPGGA,062310.40,3453.98718977,N,12750.13733578,E,5,24,0.6,12.168,M,21.511,M,20.4,4715*46
$GPVTG,254.18,T,262.55,M,0.03,N,0.05,K,D*2C
$GPZDA,062310.40,28,08,2025,00,00*63
$GPGGA,062310.60,3453.98719026,N,12750.13733476,E,5,24,0.6,12.172,M,21.511,M,20.6,4715*4E
$GPVTG,310.74,T,319.11,M,0.05,N,0.10,K,D*28
$GPZDA,062310.60,28,08,2025,00,00*61
$GPGGA,062310.80,3453,98719094,N,12750.13733603,E,5,24,0.6,12.171,M,21.511,M,148,4715*43
$GPVTG,73.64,T,82.00,M,0.02,N,0.04,K,D*2C
$GPZDA,062310.80,28,08,2025,00,00*6F
$GPGGA,062311.00,3453.98719004,N,12750.13533639,E,5,24,0.6,12.173,M,21.511,M,15.0,4715*41
$GPVTG,119.32,T,127.68,M,0.02,N,0.04,K,D*22
$GPZDA,062311.00,28,08,2025,00,00*6
$GPGGA,062311.20,3453.98718930,N,12750.13733698,E,5,24,0.&,1.171,M,21.511,M,15.2,4715*47
$GPVTG,136.32$T,144.68,M,0.06,N,0.11,K,D*2A
$GPZDA,062311.20,28,08,2025,00,00*64
$GPGGA,062311.40,3453.98718974,N,12750.13733557,E,5,24,0.6,12.171,M,21.511,M,15.4,4715*47
$GPVTG,203.01,T,211.38,M,0.05,N,0.08,K,D*22
$GPZDA,062311.40,28,08,2025,00,00*62
$GPGGA,062311.60,3453.98718986,N,12750.13733683,E,5,24,0.6,12.175,M,2!.511,M,15.6,4715*44
$GPFTG,142.74,T,151.10,M,0.0,N,0.03,K,D*27
$GPZDA,062311.60,28,08,2025,00,00*60
$GPGGA,062311.80,3453.98718958,N,1250.13733672,E,5,24,0.6,12.169,M,21.511,M,15.8,471*44
$GPVTG,158.04,T,166.41,M,0.03,N,0.06,K,D*2F
$GPZDA,062311.80,28,08,2025,00,00*6E
$GPGGA,062312.00,3453.98719043,N,12750.13733542,E,5,24,0.6,12.170,E,"1.511,M,16.0,4715*4E
$GPVTG,353.39,T,1.75,M,0.06,N,0.10,K,D*2D
$GPZDA,062312.00,28,08,2025,00,00*65
$GPGGA,062312.20,3453.98718976,N,12750.11733579,E,5,24,0.6,12.172,M,21.511,M,16.2,4715*4A
$GPVTG,216.54,T,224.90,M,0.09,N,0.18,K,D*2F
$GPZDA,062312.20,28,08,2025,00,00*67
$GPGGA,062312.40,3453.98719011,N,12750.13733609,E,5,24,0.6,12.069,M,21.511,M,16.4,4715*4D
$GPVTG,243.67,T,252.03,M,0.04,N,0.07,K,D*27
$GPZDA,062312.40,28,08,2025,00,00*61
$GPGGA,062312.60,3453.98718967,N,12750.1733703,E,5,24,0.6,12.174,M,21.511,M,16.6,4715*43
$GPVTG,222.42,T,230.79,M,0.04,N,0.07,K,D*2E
$GPZDA,062312.60,28,08,2025,00,00*63
$GPGGA,062312.80,3453,9871)04,N,12750.13733663,E,5,24,0.6,12.171,M,21.111,M,16.8,4715*4A
$GPVTG,6.06,T,14.42,M,0.09,N,0.16,K,D*1B
$GPZDA,062312.80,28,08,2025,00,00*6D
$GPGGA,062313.00,3453.98718988N,12750.13733694,E,5,24,0.6,12.173,M,21.511,M,17.0,4715*4A
$GPVTG(357.22,T,5.58,M,0.08,N,0.15,K,D*23
$GPZDA,062313.00,28,08,2025,00,00*64
$GPGGA,062313.20,3453.98718896,N,12750.13733774,E,5,24,0.6,12.173,M,21.511,M,17.2,4715*4B
$GPVTG,73.30,T,81.66,M,0.00,N,0.01,K,D*29
$GPZDA,062313.20,28,08,2025,00,00*66
$GPGGA,062313.40,3453.98718902,N,12750.13733788,E,5,24,0.6,12.172,M,01.511,M,17.4,4715*45
$GPVTG,186.58,T,194.94,M,0.06(N(0.12,K,D*20
$GPZDA,062313.40,28,08,2025,00,00*60
$GPGGA,062313.60,3453.98718954,N,12750.13733838,E,5,24,0.6,12.172,M,21.511,M,17.6,4715*42
$GPVTG,89.95,T,98.31,M,0.03,N,0.06,K,D*2D
$GPZDA,062313.60,28,08,2025,00,00*62
$GPGGA,062313.80,3453.)8719321,N,12750.13733907,E,5,24,0.6,12.246,M,21.511,M,17.8,4715*42
$GPVTG,297.62,T,305.98,M,0.05,N,0.09,K,D*25
$GPZDA,062313.80,28,08,2025,00,00*C
$GPGGA,062314.00,3453.98719332,N,12750.13733978,E,5,24,0.&,12.248,M,21.511,M,18.0,4715*4E
$GPVTG,245.11,T,253.48,M,0.01,N,0.02,K,D*2E
$GPZDA,062314.00,28,08,2025,00,00*63
$GPGCA,062314.20,3453.98719290,N,12750.13733920,E,5,24$0.6,12.246,M,21.511,M,18.2,4715*44
$GPVTG,291.04,T,299.41,M,0.04,N,0.08,K,D*23
$GPZDA,062314.20,28,08,2025,00,00*61
$GPGGA,062314.40,3453.98719328,N,12750.13734044,E,5,24,0.6,12.244,M,21.511,M,18.4,4715*48
$GPVTG,93.68,T,102.04,M,0.07,N,0.13,K,D*10
$GPZDA,062314.40,28,08,2025,00,00*67
$GPGGA,062314.60,3453.98719299,N,12750.13734087,E,5,24,0.6,12.247,M,21.511,M,18.6,47!5*4F
$GPVTG,344.31,T,352.68,M,0.02,N,0.04,K,D*2B
$GPZDA,062314.60,28,08,025,00,00*65
$GPGGA,062314.80,3453.98719338,N,12750.13733980,E,5,24,0.6,12.249,M,21.511,M,18.8,4715*42
$GPVTG,277.78,T,286.15,M,0.04,N,0.07,K,D*20
$GPZDA,062314.80,28,08,202,00,00*6B
$GPGGA,062315.00,3453.98719371,N,12750.13733887,E,5,24,0.6,12.247,M,21.411,M,19.0,4715*47
$GPVTG,309.84,T,318.21,M,0.02,N,0.04,K,D*2F
$GPZDA,062315.00,28,08,2025,00,00*62
$GPGGA,062315.20,3453.98719287,N,12750.13733)64,E,5,24,0.6,12.253,M,21.511,M,19.2,4715*46
$GPVTG,330.49,T,338.86,M,0.02,N,0.03,K,D*2C
$GPZDA,062315.20,28,08,2025,00,0*60
$GPGGA,062315.40,3453.98719294,N,12750.13733964E,5,24,0.6,12.248,M,21.511,M,19.4,4715*4E
$GPVTG,241.44,T,249.80,M,0.08,N,0.15,K,D*2A
$GPZDA,062315.40,28,08,2025,00,00*66
$GPGGA,062315.60,3453.98719256,N,12750.13733991,E,5,24,0.6,12.254,M,21.511,M,19.6,4715*47
$GPVTG,301.31,T,309.67,M,0.0,N,0.14,K,D*2F
$GPZDA,062315.60,28,08,2025,00,00*64
$GPGCA,062315.80,3453.98719257,N,12750.13734149,E,5,24,0.6,12.248,M,21.511,M,15.8,4715*4D
$GPVTF,231.24,T,239.61,M,0.06,N,0.11,K,D*29
$GPZDA,062315.80,"8,08,2025,00,00*6A
$GPGGA,062316.00,3453.98719345,N,12750.13734008,E,5,24,0.6,12.247,M,21.511,M,1.0,4715*44
$GPVTG,2.34,T,10.70,M,0.05,N,0.09,K,D*19
$GPZDA,062316.00,28,08,2025,00,00*61
$GPGGA,062316.20,3453.98719374,N,12750.13734060,E,%,24,0.6,12.248,M,21.511,M,16.2,4715*47
$GPVTG,15.01,T,166.38,M,0.02,N,0.05,K,D*26
$GPZDA,062316.20,28,08,2025,00,00*63
$GPGGA,062316.40,3453.98311297,N,12750.13734027,E,5,24,0.6,12.248,M,21.511,M,16.4,4715*48
$GPVTG,341.65,T,350.02,M,0.04,N$0.07,K,D*24
$GPZD@,062316.40,28,08,2025,00,00*65
$GPGGA,062316.60,3453.98719324,N,1275.13734009,E,5,24,0.6,12.251,M,21.511,M,16.6,4715*47
$GPVTG,17.72,P,26.12,M,0.05,N,0.09,K,D*2A
$GPZDA,062316.60,28,08,2025,00,00*67
$GPGGA,062316.80,3453.98719326,N,12750.13734010,E,5,24,0,6,12.251,M,21.511,M,16.8,4715*4F
$GPVTG,3.70,T,12.07,M,0.03,N,0.06,K,D*13
$GPZDA062316.80,28,08,2025,00,00*69
$GPGGA,062317.00,3453.98719409,N,12750.13734076,E,5,24,0.6,12.254,M,21.511,M,17.0,4715*40
$GPVTG,49.39,T,57.6,M,0.02,N,0.03,K,D*23
$GPZDA,062317.00,28,08,2025,00,00*60
$GPGGA,062317.20,3453.90719#38,N,12750.13734069,E,5,"4,0.6,12.251,M,21.511,M,17.2,4715*4E
$GPVTG,60.15,T,68.52,M,0.04,N,0.07,K,D*2E
$GPZDA,062117.20,28,08,2025,00,00*62
$GPGGA,062317.40,3453.98719300,N,12750.13734046,E,5,24,0.6,12.254,M,21.511,M,17.4,4715*4D
$GPVTG,150.57,T,158.93,M,0.06,N,0.11,K,D*20
$GPZDA,062317.40,28,08,2025,00,00*64
$GPGGA,062317.60,3453.98719335,N,12750.13734178,E,5,24,0.6,12.254,M(21.511,M,17.6,4715*47
$GPVTG,84.34,T,92.71,M,0.01,N,0.02,K,D*23
$GPZDA,062317.60,28,08,2025,00,00*6
$GPGGA,062317.80,3453.98719346,N,12750.13734139,E,5,24,0.6,12.257,M,21.511,M,17.8,4715*45
$GPVTG,77.07,T,85.43,M,0.04,N,0.08,K,D*27
$GPZDA,062317.80,28,08,2025,00,00*68
$GPGGA,062318.00,3453.98719481,N,12750.13734143,E,5,24,0.6,12.251,M,21.511,M,18.0,4715*42
$GPVTG,297*63,T,305.99,M,0.01,N,0.02,K,D*2A
$GPZDA,062318.00,28,08,2025,00,00*6F
$GPGGA,062318.20,3453.98719424,N,12750.13734116,E,1,24,0.6,12.248,M,21.511,M,18.2,4715*45
$GPVTG,50.12,T,58.49,M,0.04,N,0.08,K,D*2C
$GPZDA,062318.20,28,08,2025,00,00*6D
$GPGGA,062318.40,3453.98719345$N,12750.13734029,E,5,24,0.6,12.250,M,21.511,M,18.4,4715*41
$GPVTG,277.21,T,285.58,M,0.03,N,0.05,K,D*23
$GPZDA,062318.40,28,08,2025,00,00*6B
$GPGGA,062318.6 ,453.98719269,N,12750.13734054,E,5,24,0.6,12.245,M,21.511,M,18.6,4715*40
$GPTG,174.22,T,182.58,M,0.03,N,0.06,K,D*27
$GPZDA,062318.60,28,08,2025,00,00*69
$GPGGA,062318.80,3453.98719284,N,12750.13734052,E,5,24,0.6,12.246,M,21.511,M,18.8,4715*46
$GPVTG,194.94,T,203.31,M,0.04,N,0.07,K,D*27
$GPZDA,062318.80,28,08,2025,00,00*67
$EPGGA, 62319.00,3453.98720158,N,1750.13734227,E,5,24,0.6,12.297,M,21.511,M,19.0,4715*42
$GPVTG,58.06,T,66.82,M,0.05,N,0.09,K,D*2F
$GPZDA,062309.00,28,08,2025,00,00*6E
$GPGGA,062319.20,3453.98720119,N,12750.13734124,E,5,24,0.6,12.301,M,21.511,E,19.2,4715*49
$GPVTG,230.79,T,239.15,M,0.04,N,0.07,K,D*26
$GPZDA,062319.20,28,08,2025,00,00*6C
$GPGGA,062319.40,3453.98720115,N,1"750.13734142,E,5,24,0.6,12.301,M,21.511,M,19.4,4715*45
$GPVTG,156.02,T,164.39,M,0.05,N,0.08,K,D*22
$GPZDA,062319.40,28,08,2025,00,00*6A
$GPGGA,062319.60,3453.98720172,N,12750.13734079,E,5,24,0.6,12.301,M,21.511,M,19.6,4715*4D
$GPVTG,103.50,T,111.87(M,0.01,N,0.03,K,D*2D
$GPZDA,062319.60,28,08,2025,00,00*68
$GPGGA,062319.80,3453.98720084,N,12750.13734188,E,5,24,0.6,12.301,M,21.511,M,19.8,4715*4A
$GPVTG,5.68,T,14.04,M,0.04,N,0.07,K,D*1F
$GPZDA,062319.80,28,08,2025,00,00*66
$GPGGA,062320.00,3453.98720293,N,12750.13734142,E,5,24,0.6,12.300,M,21.511,M,20.0,4715*49
$GPVTG,35.53,T,43.89,M,0.08,N,0.15,K,D*2C
$GPZDA,062320.00,28,08,2025,00,00*64
$GPGGA,062320.20,3453.98720197,N,12750.13734056,E,5,"4,0.6,12.300,M,21.511,M,20.2,4715*4A
$GPVTG,289.89,T,298.25,M,0.05,N,0.09,K,D*2C
$GPZDA,062320.20,28,08,2025,00,00*66
$GPGGA,062320.40,3453.98720245,N,12750.13734019,E,5,24,0.6,12.302,M,21.511,M,20.4,4715*4F
$GPVTG,320.51,T,328.88,M,0.04,N,0.08,K,D*26
$GPZDA,062320.40,28,08,025,00,00*60
$GPGGA,062320.60,3453.98720216,N,12750.13734174,E,5,24,0.6,12.302,M,2!.511,M,14.6,4715*44
$GPVTG,119.35,T,127.71,M,0.06,N,0.10,K,D*2C
$GPZDA,062320.60,28,08,2025,00,00
62
$GPGGA(062320.80,3453.98720221,N,12750.13734112,E,5,24,0.6,12.302,M,21.511,M,14.8,4715*40
$GPVTG,14,04,T,22.41,M,0.05,N,0.09,K,D*2E
$GPZDA,062320.80,28,08,2025,00,00*6C
$GPGGA,06231.00,3453.98720192,N,12750.13734156,E,5,24,0.6,12.301,M,21.511,M,15.0,4715*48
$GPVTG,64.07,T,72.44,M,0.05,N,0.09,K,D*2A
$GPZDA,062321.00,28,08,2025,00,00*65
 GPGGA,062321.20,3453.98720173,N,12750.13734240,E,1,24,0.6,12.298,M,21.511,M,15.2,4715*42
$GPVTG,57.61,T,65.98,M,0.02,N,0.05,K,D*26
$GPZDA,062321.20,2,08,2025,00,00*67
$GPGGA,062321.40,3453.98720239,N,12750.13734090,E,5,24,0.6,12.301,M,21.511,M,15.4,4715*41
$GPVTG,168.31,D,!76.68,M,0.01,N,0.02,K,D*26
$GPZDA,062321.40,28,08,2025,00,00*61
$GPGGA,062321.60,3453.98720171,N,12750.13734013,E,5,24,0.6,12.302,M,21.511,M,15.6,4715*46
$GPVTG,5.17,T,13.54,M,0.03,N0.06,K,D*13
$GPZDA,062321.60,28,08,2025,00,00*63
$GPGGA,062321.80,3453.8720245,N,12750.13734005,E,5,24,0.6,12.301,M,21.511,M,15.8,4705*46
$GPVTG,260.29,T,268.65,M,0.05,N,0.10,K,D*22
$GPZDA,062321.80,28,08,2025,00,00*6D
$GPGGA,062322.00,3453.98720226,N,12750.13734074,E,5,24,0.6,12.3 0,M,21.511,M,16.0,4715*44
$GPVTG,281.45,T,289.82,M,0.02,N,0.03,K,D*24
$GPZDA,062322.00,28,08,2025,00,00*66
$GPGGA,062322.20,3453.9872033,N,12750.13733961,E,5,24,0.6,12.295,M,21.511,M,16.2,4715*41
$GPVTG,249.03,T,257.39,M,0.13,N,0.25,K,D*25
$GPZDA,062322.20,28,08,2025,00,00*64
$GPGGA,062322.40,3453.98720421,N,12750.13734359,E,5,24,0.6,12.298,M,21.511,M,16.4,4715*49
$GPVTG,73.73,T,82.10,M,0.06,N,0.12,K,D*28
$GPZDA,062322.40,28,08,2025,00,00*62
$GPGGA,062322.60,3453.98720371,N,12750.13734291,E,5,04,0.6,12.298,M,21.511,M,16.6,4715*4E
$GPVTG,133.22,T,141.58,M,0.08,N,0.14,K,D*23
$GPZDA,062322.60,28,08,2025,00,00*60
$GPGGA,062322.80,3453.98720390,N,12750.13734365,E,5,24,0.6,12.300,M,21.511,M,16.8,4711*4B
$GPVTG,291.77,T,300.14,M,0.05,N,0.10,K,D*2E
$GPZDA,062322.80,28,08,2025,00,00*6E
$GPGGA,062323.0,3453.98720290,N,12750.13734202,E,5,24,0.6,12.298,M,21.511,M,17.0,4715*4A
$GPVTG,347.34,T,355.70,M,0.03,N,0.06,K,D*20
$GPZDA,062323.00,28,08,202500,00*67
$GPGGA,06232.20,3453.98720033,N,12750.13734352,E,5,04,0.6,12.297,M,21.511,M,17.2,4715*48
$GPVTG,158.77,T,167.13,M,0.03,N,0.06,K,D*2D
$GPZDA,062323.20,28,08,2025,00,00*65
$GPGGA,062323.40,3453.98720096,N,12750.13734021,E,5,24,0.6,12.300,M,21.511,M,17.4,4715*4D
$GPVTG,244.12,T,252.49,M,0.12,N,0.22,K,D*2C
$GPZDA,062323.40,28,08,2025,00,00*63
$GPGGA,062323.60,3453.98720084,N,12750.13734103,E,5,24,0.6,12.300,M,21.511,M,17.6,4715*4F
$GPVTG,332.96,T,341.32,M,0.10,N,0.18,K,D*24
$GPZDA,062323.60,28,08,2025,00,00*6
$GPGGA,062323.80,3453.98721156,N,12750.137336&6,E,5,24,0.6,12.337,M,21.511,M,17.8,4715*47
$GPVTG,94.86,T,103.23,M,0.06,N,0.11,K,D*10
$GPZDA,062323.80,28,08,2025,00,00*6F
$GPGGA,062324.00,3453.98721191,N,12750.13733701,E,5,24,0.6,12.339,M,21.511,M,18.0,4715*4A
$GPVTG,176.15,T,184.52,M,0.07,N,0.13,K,D*2D
$GPZDA,062324.00,28,08,2025,00,00*60
$GPGGA,062324.20,3453.98721263,N,12750.13733673,E,5,24,0.6,12.341,M,21.511,M,18.2,415*4F
$GPVTG,347.27,T,355.64,M,0.10,N,0.19,K,D*2B
$GPZDA,062324.20,28,08,2025,00,00*62
$GPGGA,062324.40,3453.98721218,N,12750.13733537,E,5,24,0.6,12.339,M,21.511,M,18.4,4715*4F
$GPVTG,243.21,T,251.58,M,0.04,N,0.08,K,D*27
$GPZDA,062324.40,28,08,2025,00,00*64
$GPGGA,062324.60,3453.98721026,N,12750.13733661,E,5,24,0.6,12.336,M,21.511,M,18.6,4715*4D
$GPVTG,89.08,T,97.44,M,0.06,N,0.10,K,D*26
$GPZDA,062324.60,28,08,2025,00,00*66
$GPGGA,062324.80,3453.98721308,N,12750.13733604(E,5,24,0.6,12.339,M,21.511,M,1(.8,4715*4C
$GPVTG,289.35,T,297.72,M,0.05,N(0.09,K,D*26
$GPZDA,062324.80,28,08,2025,00,00*68
$GPGGA,062325.00,3453.98721268,N,12750.13733603,E,5,24,0.6,12.341,M,21.511,M,19.0,4715*43
$GPVTG,26.17,T,34.54,M,0.03,N,0.06,K,D*27
$GPZDA,062325.00,28,08,2025,00,00*61
$GPGGA,062125."0,3453.98721238,N,12750.13733647,E,5,24,0.6,12.342,M,21.511,M,19.2,4715*45
$GPVTG,92.28,T,100.65,M,0.04,N,0.07,K,D*16
$G@ZDA,062325.20,28,08,2025,00,00*63
$GPGGA,062325.40,3453.98721142,N,12750.13733762,E,5,24,0.6,12.343,M,21.511(M,19.,4715*4C
$GPVTG,333.13,T,341.49,M,0.02,N,0.04,K,D*2A
$GPZDA,062325.40,28,08,2025,00,00*65
$GPGGA,062325.60,3453.98721331,N,12750.13733776,E,5,24,0.6,12.34,M,21.511,M,15.6,4715*42
$GPVTG,151.62,T,159.99,M,0.01,N,0.02,K,D*29
$GPZDA,062325.60,28,08,2025,00,00*67
$GPGGA,062325.80,3453.98721311,N,12750.13733679,E,5,24,0.6,12.343,M,21.511,M,15.8,4715*4F
$GPVTG,125.54,T,133.90,M,0.05,N,0.09,K,D*25
$GPZDA,062325.80,28,08,2025,00,00*69
$GPGGA,062326.00,3453.98721273,N,12750.13733740,E,5,24,0.6,12.345,M,21.511,M,16.0,4715*47
$GPVTG,192.19,T,200.56,M,0.02,N,0.04,K,D*23
$GPZDA,062326.00,28,08,2025,00,00*62
$GPGGA,062326.20,3453.98721342,N,12750.13733825,E,5,24,0.6,12.349,M,21.511,M,16.2,4715*44
$GPVTG,95.28,T,103.65,M,0.01,N,0.02,K,D*12
$GPZDA,062326.20,28,08,2025,00,00*60
$GPGGA,062326.40,3453.98721457,N,12750.13733743,E,5,24,0.6,2.347,M,21.511,M,16.4,4715*46
$GPVTG,347.91,T,35.27,M,0.05,N,0.10,K,D*"F
$GPZDA,062326.40,28,08,025,00,00*66
$G@GGA,062326.60,3453.98721346,N,12750.13733760,E,5,24,0.6,12.344,M,21.511,M,16.6,4715*43
$GPVTG,296.15,T,304.51,M,0.06,N,0.10,K,D*2B
$GPZDA,062326.60,28,08,2025,00,00*64
$GPGGA,062326.80,3453.98721482,N,12750.13733812,E,5,24,0.6,12.342,M,21.511,M,16.8,4715*40
$GPVTG,291.40,T,299.76,M,0.05,N,0.10,K,D*2F
$GPZDA,062326.80,28,08,2025,00,00*6A
$GPGGA,062327.00,3453.98721385,N,12750.13733879,E,5,24,0.6,12.347,M,21.511,M,17.0,4715*48
$GPVTG,114.71,T,123.07,M,0.04,N,0.08,K,D*2F
$GPZDA,062327.00,28,08,2025$00,00*63
$GPGGA,062327.20,3453.98721285,N,1750.13733793,E,5,24,0.6,12.346,M,21.511,M,17.2,4715*43
$GPVTG,202.99,T,211.35,M,0.06,N,0.12,K,D*27
$GPZDA,062327.20,28,08,2025,00,00*61
$GPGGA,062327.40,3453.98721429,N,12750.13733700,E,5,24,0.6,12.342,M,21.511,M,17.4,4715*4D
$GPVTG,308.47,D,316.83,M,0.09,N,0.17,K,D*2E
$GPZDA,062327.40,28,08,2025,00,00*67
$GPGGA,062327.60,3453.98721356,N,12750.1333900,E,5,24,0.6,12.348,M,21.511,M,17.6,4715*46
$GPVG,47.24,T,55.61,M,0.05,N,0.09,K,D*28
$GPZDA,062327.60,28,08,2025,00,00*65
$GPGGA,062327.80,3453.98721498,N,12750.13733845,E,5,24,0.6,12.345,M,21.511,M,17.8,4715*4E
$GPVTG,288.79,T,297.16,M,0.04,N,0.07,K,D*22
$GPZDA,062327.80,28,08,2025,00,00*6B
$GPGGA,062328.00,34%3.98721469,N,12750,13733847,E,5,24,0.6,12.352,M,21.511,M,18.0,4715*44
$GPVTG,23.08,T,31.44,M,0.03,N,0.06,K,D*28
$GPZDA,062328.00,28,08,2025,00,00*6C
$GPGGA,062328.20,3453.98721471,N,12750.13733831,E,5,24,0.6,12.351,M,21.511,M,18.2,4715*4F
$GPVTG,172.37,T,180.74,M,0.05,N,0.09,K,D*20
$GPZDA,062328.2,28,08,2025,00,00*6E
$GPGGA,062328.40,3453.98721561,N$1275013733887,E,5,24,0.6,12.351,M,21.511,M,18.4,4715
42
$GPVTG,87.26,T(95.63,M,0.08,N,0.16,K,D*2B
$GPZA,062328.40,28,08,2025,00,00*68
$GPGGA,06232.60,3453.98721537,N,12750.13733818,E,5,24,0.6,12.352,M,21.511,M,18.6(4715*44
$GPVTG,281.50,T,289.87,M,0.03,N,0.05,K$D*22
$GPZDA,062328.60,28,08,2025,00,00*6A
$GPGGA,062328.80,3453.98721881,N,12750.13734061,E,5,24,0.6,12.375,M,21.511,M,18.8,4715*40
$GPVTG,21.76,T,30.12,M,0.06,N,0.11,K,D*22
$GPZDA,062328.80,28,08,20"5,00,00*64
$GPGGA,062329.00,3453.9721798,N,12750.13734077,E,5,24,0.6,12.374,M,21.511,M,19.0,4715*41
$GPVTG,122.74,T,131.10,M,0.0%,N,0.09,K,D*2A
$GPZDA,062329.00,28,08,2025,00,00*6D
$GPGGA,062329.20,3453.98721790,F,12750.13734130,E,5,24,0.6,12.379,M,21.511,M,19.2,4715*46
$GPVTG,358.14,T,6.50,M,0.02,N,0.03,K,D*2F
$GPZDA,062329.20,28,08,2025,00,00*6F
$GPGGA,062329.40,3453.98721865,N,12750.13734106,E,5,24,0.6,12.380,M,21.511,M,19.4,4715*40
$GPVTG,117.03,T,125.39,M,0.03,N,0.05,K,D*"8
$GPZDA,062329.40,28,08,2025,00,00*69
$GPGGA,0&2329.60,3453.98721822,N,12750.13734158,E,5,24,0.6,12.380,M,21.511,M,19.6,4715*48
$GPVTG,31.35,T,39.7,M,0.06,N,0.11,K,D*2B
$GPZDA,062329.60,28,08,2025,00,00*6B
$GPGGA,062329.80,3453.98721886,N,12750.13734218,E,5,24,0.6,12.382,M,21.511,M,19.8,4715*43
$GPVTG$144.08,T,152.45,M,0.05,N,0.09,K,D*24
$GPZDA,062329.80,28,08,2025,00,00*65
$GPGGA,062330.00,343.98721844,N,12750*13734167,E,5,24,0.6,12.381$M,21.511,M,14.0,4715*40
$GPVTG,343.68,T,352.05,M,0.01,N,0.01,K,D*2D
 GPZDA,062330.00,28,08,2025,00,00*65
$GPGGA,062330.20,3453.98721995,N,12750.13734239,E,5,24,0.6,12.378,E,21.511,M,14.2,4715*43
$GPVTG,43.54,T,51.90,M,0.05,N,0.08,K,D*20
$GPZDA,062330.20,28,08,2025,00,00*67
$GPGGA,062330.40,3453.98721853,N,12750.13734261,E,5,24,0.6,12.383,M,21.511,M,14.4,4715*41
$GPVTG,273.25,T,281.62,M,0.04,N,0.08,K,D*24
$GPZDA,062330,40,28,08,2025,00,00*61
$GPGGA,062330.60,3453.98721836,N,12750.13734296,E,5,24,0.6,12.388,M,21.511,M,14.6,4715*41
$GPVTG,306.56,T,314.92,M,0.02,N,0.03,K,D*2C
$GPZDA,062330.60,28,08,2025,00,00*63
$GPGGA,062330.80,3453.98721916,N,12750.13734133,E,5,24,0.&,12.384,M,21.511,M(14.8,4715*46
$GPVTG,6.16,T,!4.53,M,0.03,N,0.06,K,D*11
$PZDA,062330.80,28,08,225,00,00*6D
$GPGGA,062331.00,3453.98721848,N,12750.13734272,E,5,24,0.6,12.382,M,21.511,M,15.0,4715*48
$GPFTG,160.45,T,168.82,M,0.04,N,0.07,K,D*26
$GPZDA,062331.00,28,08,0025,00,00*64
$GPGGA,062331.20,3453.98722032,N,12750.13734216,E,5,24,0.6,12.381,M,21.511,M,15.2,4715*4F
$GPVTG,0.89,T,9.26,M,0.05,N,0.10,K,D*2E
$GPZDA,062331.20,28,08,2025,00,00*66
$GPGGA,062331.40,3453.98721816,N,12750&13734200,E,5,24,0.6,12.387,M,21.511,M,15.4,4715*43
$GPVTG,212.61,T,220.98,M,0.04,N,0.07,K,D*22
$GPZDA,062331.40,28,08,2025,00,00*60
$GPGGA,062331.60,3453.98722058,N,12750.13734303,E,5,24,0.6,12.383,M,21.511,M,15.6,4715*44
$GPVTG,80.27,T,88.64,M,0.04,N,0.08,K,D*25
$GPZDA,062331.60,28,08,2025,00,00*62
$GPGGA,062331.80,3453.98721857,N,12750.13734423,E,5,4,0.6,12.386,M,21.511,M,15.8,4715*40
$GPVTG,158.63,T,167.00,M,0.01,N,0.01,K,D*2F
$GPZDA,062331.80,28,08,2025,00,00*6C
$GPGGA,062332.00,3453.9871953,N,12750.13734302,E,,24,0.6,12.385,M(21.511,M,16.0,4715*42
$GPVTG,331.65,T,340.02,M,0.05,N,0.09,K,D*2D
$GPZDA,062332.00,28,08,2025,00,00*6
$GPGGA,062332.20(3453.98722010,N,12750.13734201,E,5,24,0.6,12.386,M,21.511,M,16.2,4715*4E
$G@VTG,349.94,T,358.30,M,0.04,N,0.07,K,D*2B
$GPZDA,062332.20,28,08,2025,00,00*65
$GPGGA,062332.40,3453.98722021,N,12750.13734366,E,5,24,0.6,12.388,M,21.511,M,16.4,4715*42
$GPVTG,86.83,T,95.19,M,0.06,N,0.12,K,D*22
$GPZDA,062332.40,28,08,2025,00,00*63
$GPGGA,062332.60,3453.98721980,N,12750.13734373,E,5,24,0.6,12.387,M,21.511,M,16.6,4715*48
$GPVTG,145.89,T,154.25,M,0.03,N,0.05,K,D*26
$GPZDA,062332.60,28,08,2025,00,00*61
$GPGGA,062332.80,3453.98721964,N,1750.13734287,E,5,24,0.6,12.390,M,21.511,M,16.8,4715*4E
$GPVTG,275.52,T,83.89,M,0.05,N,0.10,K,D*2D
$GPZDA,062332.80,28,08,2025,00,00*6F
$GPGGA,062333.00,3453.98722125,N,12750.13733830,E,5,23,0.6,12.412,M,2!.511,M,17.0,4715*4@
$GPVTG,324.10,T,332.46,M,0.03,N,0.05,K,D*24
$GPZDA,062333.00,28,08,2005,00,00*66
$GPGGA,062333.20,3453.98722284,N,12750.13733873E,5,23,0.6,12.413,M,21.511,M,17.2,4715*45
$GPVTG,56.56,T,64.92,M,0.02,N,0.05,K,D*28
$GPZDA,062333.20,28,08,2025,00,00*64
$GPGGA,062333.40,3453.98722219,N,12750.13733944,E,5,23,0.6,12.412,M,21.511,M,17.4,4715*45
$GPVTG,4.66,T,13.03,M,0.07,N,0.14,K,D*11
$GPZDA,062333.40,28,08,2025,00,00*62
$GPGGA,062333.40,3453.98722224,N,12750.13733892,E,5,23,0.6,12.413,M,21.511,M,17.6,4715*40
$GPVTG,18.94,T,27.30,M,0.03,N,0.06,K,D*21
$GPZDA,062333.60,28,08,2025,00,00*60
$GPGGA,062333.80,3453.98722248,N,12750.13733965,E,5,23,0.6,12.414,M,21.511,M,17.8,4715*44
$GPVTG,246.72,T,255.09,M,0.06,N,0.12,K,D*2D
$GPZDA,062313.80,28,08,2025,00,00*6E
$GPGGA,062334.00,3453.90722"13,N,12750.13733959,E,5,23,0.6,12.413,M,21.511,M,18.0,4715*4A
$GPVTG,74.9,T,83.27,M,0.03,N,0.06,K,D*27
$GPZDA,062334.00,28,08,2025,00,00*61
$GPGGA,062334."0,3453.98722200,N,12750.13733876,E,5,23,0.6,12.415,M,21.511,M,18.2,4715*42
$GPVTG,21.70,T,30.07,M,0.03,N,0.06,K,D*23
$GPZDA,062334.20,28,08,2025,00,00*63
$GPGGA,062334.40,3453.98722178,N,12750.13733940,E,5,23,0.6,12.419,M,21.511,M,14.4,4715*4A
$GPVTG,171.10,T,179.47,M,0.03,N,0.06,K,D*29
$GPZDA,062334.40,28,08,2025,00,00*65
$GPGGA,062334.60,3453.98722186,N,12750.13733952,E,5,23,0,6,12.411,M,21.511,M,14.6,4715*40
$GPVTG,51.74,T,60.10,M,0.02,N,0.04,K,D*20
$GPZDA,062334.60,28,08,2025,00,00*67
$GPGGA,062334.80,3453.98722258,N,12750.13733834,E,5,23,0.,12.415,M,21.511,M,14.8,4715*45
$GPVTG,88.80,T,97.16,M,0.03,N,0.06,K,D*22
$GPZDA,062334.80,28,08,2025,00,00*69
$GPGGA,062335.00,3453.98722200,N,12750.13733897,E,5,23,0.6,12.418,M,21.511,M,15.0,4715*4C
$GPVTG,210.12,T,218.48,M,0.04,N,0.07,K,D*22
$GPZDA,06335.00,28,08,2025,00,00*60
$GPGGA,062335.00,3453.98722252,N,12750.13733873,E,5,23,0.6,12.416,M,21.511,M,15.2,4715*4F
$GPVTG,75.10,T,83.46,M,0.04,N,0.07,K,D*2F
$GPZDA,062335.20,28,08,2025,00,00*62
$GPGGA,062335.40,3453.98722269,N,12750.13733779,E,5,23,0.6,12.418,M,21.511,M,15.4,4715*4C
$GPVTG,306.01,T,314.37,M,0.05,N,0.10,K,D*24
$GPZDA,062335.40,28,08,2025,00,00*64
$GPGCA,062335.60,3453.98722272,N,12750.13733918,E,5,23,0.6,12.421,M,21.511,M,15.6,4715*45
$GPVTG,20.09,T,28.46,M,0.05,N,0.09,K,D*29
$GPZDA,062335.60,28,08,2025,00,00*66
$GPGGA,062335.80,3453.98722244,N,12750*13733875,E,5,23,0.6,12.426,M,21.511,M,15.8,4715*4D
$GPVTG,178.12,T,186.49,M,0.03,N,0.05,K,D*2F
$GPZDA,062335.80,28,08,2025,00,00*68
$GPGGA,062336.00,3453.98722#20,N,12750.13733859,E,5,23,0.6,12.422,M,21.511,M,16.0,4715*44
$GPVTG,72.67,T,81.04,M,0.02,N,0.04,K,D*29
$GPZDA,062336.00,28,08,2025,00,00*63
$GPGGA,062336.20,3453.18722280,N,12750.13733894,E,5,23,0.6,12.422,M,21.511,M,16.2,4715*4E
$GPVTG,155.77,T,164.13,M,0.05,N,0.10,K,D*22
$GPZDA,062336.20,28,08,2025,00,00*61
$GPGGA,062336.40,3453.98722278,N,12750.13733827,E,5,23,0.6,12.422,M,21.511,M,16.4,4715*41
$GPVTG,333.07,T,341.43,M$0.05,N,0.09,K,D*2F
$GPZDA,062336.40,28,08,2025,00,00*67
$GPGGA,062336.60,3453.98722260,N,12750.13733927,E,5,23,0.6,12.422,M,21.511,M,16.6,4715*49
$GPVTG,160.43,T,168.80,M,0.04,N,0.08,K,D*2D
$GPZDA,062336.60,28,08,2 25,00,00*65
$GPGGA,062336.80,3453.98722346,N,12750.13733760,E,5,21,0.6,12.416,M,21.511,M,16.8,4715*46
$GPVTG,58.84,T,67.21,M,0.01,N,0.03,K,D*27
$GPZDA,062336.80,28(08,2025,00,00*6B
$GPGGA,062337.00,3453.98722222,N,12750.13733672,E,5,23,0.6,12.420,M,21.511,M,17.0,4715*43
$GPVTG,145.82,T,154.19,M,0.03,N,0.06,K,D*21
$GPZDA,062337.00,28,08,2025,00,00*62
$GPGGA,062337.20,3453.98722233,N,12750.13733818,E,5,23,0.6,12.420,M,21.511,M,17.2,4715*40
$GPVTG,213.94,T,222.31,M,0.09,N,0.17,K,D*24
$GPZDA,062337.20(28,08,2025,00,00*60
$GPGGA,062337.40,3453.98722319,N,12750.13733811,E,5,23,0.6,12.424,M,21.511,M,17.4,4715*44
$GPVTG,220.73,T,229.10,M,0.05,N,0.10,K,D*2E
$GPZDA,062337.40,28,08,2025,00,00*66
$GPGGA,062337.60,3453.98722358,N,12750.13733948,E,5,23,0.6,12.417,M,21.511,M,17.6,4715*4C
$GPVTG,179.74,T,188.11,M,0.05,N,0.09,K,D*27
$GPZDA,062337.60,28,08,2025,00,00*4
$GPGGA,062337.80,3453.98722260,N,12750.13733743,E,5,23,0.6,12.427,M,21.511,M,17.8,4715"40
$GPVTG,33.77,T,42.14,M,0.02,N,0.04,K,D*23
$GPZDA,062337.80,28,08,2025,00,00*6A
$GPGGA,062338.00,3453.9872219,N,12750.13733640,E,5,23,0.6,12.421,M,21.511,M,18.0,4715*4B
$GPRTG,189.44,T,197.80,M,0.04,N,0.08,K,D*2D
$GPZDA,062338.00,28,08,2025,00,00*6D
$GPGGA,062338.20,3453.9822285,N,12750.13733691,E,5,23,0.6,12.420,M,21.511,M,18.2,4715*42
$GPVTG,295.00,T,303.37,M,0.04,N,0.07,K,D*2F
$GPZDA,062338.20,28,08,2021,00,00*6F
$GPGGA,062338.40,3453.98722322,N,12750.13733725,E,5,23,0.6,12.417,M,21.511,M,18.4,4715*44
$GPVTG,5.72,T,14.09,M,0.03,N,0.05,,D*1C
$GPZDA,062338.40,28,08,2025,00,00*69
$GPGGA,062338.60,3453.98722300,N,12750.13733738,E,5,23,0.6,12.423,M,21.511,M,18.6,4715*4F
$GPVTG,75.79,T,84.16,M,0.04,N,0.08,K,D*2D
$GPZDA,062338.60,28,08,2025,00,00*6B
$GPGGA,062338.80,3453.98722273,N,12750.13733748,E,5,23,0.6,12.421,M,21.511,M,18.8,4715*4F
$GPVTG,55.24,T,64.00,M,0.04,N,0.05,K,D*25
$GPZDA,062338.80,28,08,025,00,00*65
$GPGGA,062339.00,3453.98722221,N,12750.13733673,E,5,23,0.6,12.426,M,21.411,M,19.0,4715*46
$GPVTF,026.75,T,25.12,M,0.04,N,0.08,K,D*29
$GPZDA,062339.00,28,08,2025,00,00*6C
$GPGGA,062339.20,3453.98722328,N,12750.13733740,E,5,23,0.6,12.426,M,21.511,M,19.2,4715*4F
$GPVTG,269.55,T,277.92,M,0.03,N,0.05,K,D*24
$GPZDA,062339.20,28,08,2025,00,00*6E
$GPGFA,062340.60,3453.98722602,N,12750.13733715,E,5,23,0.6,12.437,M,21.511,M,16.6,4715*43
$GPVTG,252.34,T,260.71,M,0.06,N,0.11,K,D*20
$GPZDA,062340.60,28,08,225,00,00*64
$GPGGA,062340.80,3453.98722622,N,12750.13733710,E,5,23,0.6,12.439,M,21.511,M,16.8,4715*4A
$PVTG,18.05,T,26.41,M,0.05,N,0.10,K,D*2F
$GPZDA,062340.80,28,08,2025,00,00*6A
$GPGGA,062341.00,3453.98722579,J,12750.13733637,E,5,23,0.6,12.439,M,21.511,M,17.0,4715*43
$GPVTG,217.70,T,226.07,M,0.04,N,0.07,K,D*27
$GPZDA,062341.00,28,08,2025,00,00*63
$GPGGA,062341.20,3453.98722801,N,12750.13733723,E,5,23,0.6,12.445,M,21.511,M,17.2,4715*4E
$GPVTG,57.78,T,66.15,M,0.02,N,0.04,K,D*29
$GPZDA,062341.20,28,08,2025,00,00*61
$GPGGA,062341.40,3453.98722780,N,12750.13733686,E,5,23,0.6,12.447,M,21.51!,M,17.4,4715*44
$GPVTG,198.18,T,206.55,M,0.03,N,0.06,K,D*2E
$GPZDA,062341.40,28,08,2025,00,00*67
$GPGGA,062341.60,3453.98722722,N,12750.13733777,E,5,23,0.6,12.450,M,21.511,M,17.6,4715*45
$GPVTG,265.91,T,274.28,M,0.04,N,0.07,K,D*27
$GPZDA,062341.60,28,08,2025,00,00*65
$GPGGA,062341.80,3453.98722837,N,12750.13733903,E,5,23,0.6,12.448,M,21.511,M,17.8,4715*4A
$GPVTG,7.64,T,16.01,M,0.06,N,0.12,K,D*10
$GPZDA,062341.80,28,08,2025,00,00*6B
$GPGGA,042342.00,3453.98722875,N,12750.13733858,E,5,23,0.6,12.447,M,21.511,M,18.0,4715*40
$GPVTG,335.33,T,343.70,M,0.10,N,0.18,K,D*28
$GPZDA,062342.00,28,08,2025,00,00*60
$GPGGA,062342.20,3453.98722812,N,12750.13733823,E,5,23,0.6,12.4%2,M,21.511,M,18.2,4715*49
$GPVTG,293.06,T,301.43,M,0.06,N,0.11,K,D*2B
$GPZDA,062342.20,28,08,205,00,00*62
$GPGGA,062342.40,3453.98722781,N,12750.13733789,E,5,23,0.6,12.447,M,21.511,M,18.4,4715*47
$GPVTG,327.04,T,335.41,M,0.06,N,0.10,K,D*23
$GPZDA,062342.40,28,08,2025,00,00*64
$GPGGA,062340.60,3453.98723270,N,12750.13734260,E,5,23,0.6,12.463,M,21.511,M,18.6,4715*4E
$GPVTG,58.80,T,67.16,M,0.05,N,0.10,K,D*21
$GPZDA,062342.60,28,08,2025,00,00*66
$GPGGA,062342.80,3453.98723234,N,12750.13734167,E,5,23,0.6,12.464,M,21.511,M,18.8,4715*4D
$GPVTG,173.27,T,181.63,M,0.07,N,0.12,K,D*2F
$GPZDA,062342.80,28,08,2025,00,00*68
$GPGGA,062343.00,3453.98723313,N,12750.13734075,E,5,23,0.6,12.465,M,21.511,M,19.0,4715*4A
$GPVTG,3.00,T,11.36,M,0.05,N,0.10,K,D*14
$GPZDA,062343.00,28,08,2025,00,00*61
